[
    {
        "hill_id": 1,
        "hill_list": "Munros",
        "hill_name": "Ben Nevis",
        "meaning": "Possibly from an old Gaelic word meaning venomous",
        "height": 1345,
        "height_drop": null,
        "latitude": 56.79682,
        "longitude": -5.00362,
        "os_ref": null,
        "region_name": "04 - Loch Linnhe to Loch Ericht"
    },
    {
        "hill_id": 2,
        "hill_list": "Munros",
        "hill_name": "Ben Macdui",
        "meaning": "Hill of the son of Duff",
        "height": 1309,
        "height_drop": null,
        "latitude": 57.06999,
        "longitude": -3.66907,
        "os_ref": null,
        "region_name": "08 - Deeside to Speyside - The Cairngorms"
    },
    {
        "hill_id": 3,
        "hill_list": "Munros",
        "hill_name": "Braeriach",
        "meaning": "Brindled greyish upper part",
        "height": 1296,
        "height_drop": null,
        "latitude": 57.07817,
        "longitude": -3.72883,
        "os_ref": null,
        "region_name": "08 - Deeside to Speyside - The Cairngorms"
    },
    {
        "hill_id": 4,
        "hill_list": "Munros",
        "hill_name": "Cairn Toul",
        "meaning": "Hill of the barn",
        "height": 1291,
        "height_drop": null,
        "latitude": 57.05415,
        "longitude": -3.71122,
        "os_ref": null,
        "region_name": "08 - Deeside to Speyside - The Cairngorms"
    },
    {
        "hill_id": 5,
        "hill_list": "Munros",
        "hill_name": "Sgor an Lochan Uaine (The Angel's Peak)",
        "meaning": "Peak of the little green loch",
        "height": 1258,
        "height_drop": null,
        "latitude": 57.05754,
        "longitude": -3.72622,
        "os_ref": null,
        "region_name": "08 - Deeside to Speyside - The Cairngorms"
    },
    {
        "hill_id": 6,
        "hill_list": "Munros",
        "hill_name": "Cairn Gorm",
        "meaning": "Blue hill",
        "height": 1244,
        "height_drop": null,
        "latitude": 57.11614,
        "longitude": -3.64472,
        "os_ref": null,
        "region_name": "08 - Deeside to Speyside - The Cairngorms"
    },
    {
        "hill_id": 7,
        "hill_list": "Munros",
        "hill_name": "Aonach Beag",
        "meaning": "Little hill",
        "height": 1234,
        "height_drop": null,
        "latitude": 56.79995,
        "longitude": -4.95587,
        "os_ref": null,
        "region_name": "04 - Loch Linnhe to Loch Ericht"
    },
    {
        "hill_id": 8,
        "hill_list": "Munros",
        "hill_name": "Aonach Mor",
        "meaning": "Big hill",
        "height": 1221,
        "height_drop": null,
        "latitude": 56.81236,
        "longitude": -4.96341,
        "os_ref": null,
        "region_name": "04 - Loch Linnhe to Loch Ericht"
    },
    {
        "hill_id": 9,
        "hill_list": "Munros",
        "hill_name": "Carn Mor Dearg",
        "meaning": "Big red hill",
        "height": 1220,
        "height_drop": null,
        "latitude": 56.80459,
        "longitude": -4.98737,
        "os_ref": null,
        "region_name": "04 - Loch Linnhe to Loch Ericht"
    },
    {
        "hill_id": 10,
        "hill_list": "Munros",
        "hill_name": "Ben Lawers",
        "meaning": "Gaelic labhar, meaning loud (from a stream)",
        "height": 1214,
        "height_drop": null,
        "latitude": 56.5447,
        "longitude": -4.22171,
        "os_ref": null,
        "region_name": "02 - Loch Tay to Rannoch Moor"
    },
    {
        "hill_id": 11,
        "hill_list": "Munros",
        "hill_name": "Beinn a' Bhuird",
        "meaning": "Table-hill",
        "height": 1197,
        "height_drop": null,
        "latitude": 57.08741,
        "longitude": -3.49987,
        "os_ref": null,
        "region_name": "08 - Deeside to Speyside - The Cairngorms"
    },
    {
        "hill_id": 12,
        "hill_list": "Munros",
        "hill_name": "Carn Eighe",
        "meaning": "File hill",
        "height": 1183,
        "height_drop": null,
        "latitude": 57.28773,
        "longitude": -5.11608,
        "os_ref": null,
        "region_name": "11 - Glen Shiel to Loch Mullardoch"
    },
    {
        "hill_id": 13,
        "hill_list": "Munros",
        "hill_name": "Beinn Mheadhoin",
        "meaning": "Middle hill",
        "height": 1182,
        "height_drop": null,
        "latitude": 57.09499,
        "longitude": -3.61242,
        "os_ref": null,
        "region_name": "08 - Deeside to Speyside - The Cairngorms"
    },
    {
        "hill_id": 14,
        "hill_list": "Munros",
        "hill_name": "Mam Sodhail",
        "meaning": "Hill of the barns",
        "height": 1181,
        "height_drop": null,
        "latitude": 57.27953,
        "longitude": -5.12037,
        "os_ref": null,
        "region_name": "11 - Glen Shiel to Loch Mullardoch"
    },
    {
        "hill_id": 15,
        "hill_list": "Munros",
        "hill_name": "Stob Choire Claurigh",
        "meaning": "Gaelic clamhras, meaning brawling or clamouring",
        "height": 1177,
        "height_drop": null,
        "latitude": 56.8231,
        "longitude": -4.84951,
        "os_ref": null,
        "region_name": "04 - Loch Linnhe to Loch Ericht"
    },
    {
        "hill_id": 16,
        "hill_list": "Munros",
        "hill_name": "Ben More (Glen Dochart)",
        "meaning": "Big hill",
        "height": 1174,
        "height_drop": null,
        "latitude": 56.38579,
        "longitude": -4.54132,
        "os_ref": null,
        "region_name": "01 - Loch Fyne to Loch Tay"
    },
    {
        "hill_id": 17,
        "hill_list": "Munros",
        "hill_name": "Ben Avon, Leabaoidh an Daimh Bhuide",
        "meaning": "Bed of the yellow stag",
        "height": 1171,
        "height_drop": null,
        "latitude": 57.09894,
        "longitude": -3.43596,
        "os_ref": null,
        "region_name": "08 - Deeside to Speyside - The Cairngorms"
    },
    {
        "hill_id": 18,
        "hill_list": "Munros",
        "hill_name": "Stob Binnein",
        "meaning": "Gaelic binnein, meaning peak",
        "height": 1165,
        "height_drop": null,
        "latitude": 56.3706,
        "longitude": -4.53707,
        "os_ref": null,
        "region_name": "01 - Loch Fyne to Loch Tay"
    },
    {
        "hill_id": 19,
        "hill_list": "Munros",
        "hill_name": "Beinn Bhrotain",
        "meaning": "Hill of the mastiff",
        "height": 1157,
        "height_drop": null,
        "latitude": 57.00905,
        "longitude": -3.72397,
        "os_ref": null,
        "region_name": "08 - Deeside to Speyside - The Cairngorms"
    },
    {
        "hill_id": 20,
        "hill_list": "Munros",
        "hill_name": "Lochnagar",
        "meaning": "Little loch of the noisy sound (Lochan na Gaire)",
        "height": 1155,
        "height_drop": null,
        "latitude": 56.95992,
        "longitude": -3.24642,
        "os_ref": null,
        "region_name": "07 - Glen Shee to Glen Esk"
    },
    {
        "hill_id": 21,
        "hill_list": "Munros",
        "hill_name": "Derry Cairngorm",
        "meaning": "Blue hill of Derry",
        "height": 1155,
        "height_drop": null,
        "latitude": 57.06252,
        "longitude": -3.62255,
        "os_ref": null,
        "region_name": "08 - Deeside to Speyside - The Cairngorms"
    },
    {
        "hill_id": 22,
        "hill_list": "Munros",
        "hill_name": "Sgurr nan Ceathreamhnan",
        "meaning": "Peak of the quarters",
        "height": 1151,
        "height_drop": null,
        "latitude": 57.25447,
        "longitude": -5.22273,
        "os_ref": null,
        "region_name": "11 - Glen Shiel to Loch Mullardoch"
    },
    {
        "hill_id": 23,
        "hill_list": "Munros",
        "hill_name": "Bidean nam Bian",
        "meaning": "Peak of the mountains",
        "height": 1150,
        "height_drop": null,
        "latitude": 56.64267,
        "longitude": -5.03001,
        "os_ref": null,
        "region_name": "03 - Rannoch Moor to Loch Linnhe"
    },
    {
        "hill_id": 24,
        "hill_list": "Munros",
        "hill_name": "Sgurr na Lapaich",
        "meaning": "Peak of the bog",
        "height": 1150,
        "height_drop": null,
        "latitude": 57.36906,
        "longitude": -5.06143,
        "os_ref": null,
        "region_name": "12 - Loch Mullardoch to Glen Carron"
    },
    {
        "hill_id": 25,
        "hill_list": "Munros",
        "hill_name": "Ben Alder",
        "meaning": "From the Alder Burn, meaning rock water",
        "height": 1148,
        "height_drop": null,
        "latitude": 56.81331,
        "longitude": -4.46533,
        "os_ref": null,
        "region_name": "04 - Loch Linnhe to Loch Ericht"
    },
    {
        "hill_id": 26,
        "hill_list": "Munros",
        "hill_name": "Geal-Charn",
        "meaning": "White hill",
        "height": 1132,
        "height_drop": null,
        "latitude": 56.83756,
        "longitude": -4.5112,
        "os_ref": null,
        "region_name": "04 - Loch Linnhe to Loch Ericht"
    },
    {
        "hill_id": 27,
        "hill_list": "Munros",
        "hill_name": "Ben Lui (Beinn Laoigh)",
        "meaning": "Calf hill",
        "height": 1130,
        "height_drop": null,
        "latitude": 56.39704,
        "longitude": -4.8111,
        "os_ref": null,
        "region_name": "01 - Loch Fyne to Loch Tay"
    },
    {
        "hill_id": 28,
        "hill_list": "Munros",
        "hill_name": "Binnein Mor",
        "meaning": "Big peak",
        "height": 1130,
        "height_drop": null,
        "latitude": 56.75392,
        "longitude": -4.92608,
        "os_ref": null,
        "region_name": "04 - Loch Linnhe to Loch Ericht"
    },
    {
        "hill_id": 29,
        "hill_list": "Munros",
        "hill_name": "An Riabhachan",
        "meaning": "The brindled greyish one",
        "height": 1129,
        "height_drop": null,
        "latitude": 57.36169,
        "longitude": -5.10572,
        "os_ref": null,
        "region_name": "12 - Loch Mullardoch to Glen Carron"
    },
    {
        "hill_id": 30,
        "hill_list": "Munros",
        "hill_name": "Creag Meagaidh",
        "meaning": "Bogland rock",
        "height": 1128,
        "height_drop": null,
        "latitude": 56.95162,
        "longitude": -4.60274,
        "os_ref": null,
        "region_name": "09 - Speyside to Great Glen"
    },
    {
        "hill_id": 31,
        "hill_list": "Munros",
        "hill_name": "Ben Cruachan",
        "meaning": "Stacky hill",
        "height": 1126,
        "height_drop": null,
        "latitude": 56.42618,
        "longitude": -5.1328,
        "os_ref": null,
        "region_name": "03 - Rannoch Moor to Loch Linnhe"
    },
    {
        "hill_id": 32,
        "hill_list": "Munros",
        "hill_name": "Meall Garbh",
        "meaning": "Rough hill",
        "height": 1123,
        "height_drop": null,
        "latitude": 56.56471,
        "longitude": -4.20824,
        "os_ref": null,
        "region_name": "02 - Loch Tay to Rannoch Moor"
    },
    {
        "hill_id": 33,
        "hill_list": "Munros",
        "hill_name": "Carn nan Gabhar",
        "meaning": "Hill of the goats",
        "height": 1121,
        "height_drop": null,
        "latitude": 56.83972,
        "longitude": -3.68831,
        "os_ref": null,
        "region_name": "06 - Drumochter to Glen Shee"
    },
    {
        "hill_id": 34,
        "hill_list": "Munros",
        "hill_name": "A' Chralaig",
        "meaning": "The basket or creel",
        "height": 1120,
        "height_drop": null,
        "latitude": 57.18428,
        "longitude": -5.15536,
        "os_ref": null,
        "region_name": "11 - Glen Shiel to Loch Mullardoch"
    },
    {
        "hill_id": 35,
        "hill_list": "Munros",
        "hill_name": "Sgor Gaoith",
        "meaning": "Peak of wind",
        "height": 1118,
        "height_drop": null,
        "latitude": 57.068,
        "longitude": -3.81248,
        "os_ref": null,
        "region_name": "08 - Deeside to Speyside - The Cairngorms"
    },
    {
        "hill_id": 36,
        "hill_list": "Munros",
        "hill_name": "An Stuc",
        "meaning": "the peak",
        "height": 1117,
        "height_drop": null,
        "latitude": 56.56008,
        "longitude": -4.2161,
        "os_ref": null,
        "region_name": "02 - Loch Tay to Rannoch Moor"
    },
    {
        "hill_id": 37,
        "hill_list": "Munros",
        "hill_name": "Aonach Beag",
        "meaning": "Little hill",
        "height": 1116,
        "height_drop": null,
        "latitude": 56.83268,
        "longitude": -4.53054,
        "os_ref": null,
        "region_name": "04 - Loch Linnhe to Loch Ericht"
    },
    {
        "hill_id": 38,
        "hill_list": "Munros",
        "hill_name": "Stob Coire an Laoigh",
        "meaning": "Peak of the corrie of the calf",
        "height": 1116,
        "height_drop": null,
        "latitude": 56.81057,
        "longitude": -4.88625,
        "os_ref": null,
        "region_name": "04 - Loch Linnhe to Loch Ericht"
    },
    {
        "hill_id": 39,
        "hill_list": "Munros",
        "hill_name": "Stob Coire Easain",
        "meaning": "Peak of the corrie of the little waterfall",
        "height": 1115,
        "height_drop": null,
        "latitude": 56.81762,
        "longitude": -4.77371,
        "os_ref": null,
        "region_name": "04 - Loch Linnhe to Loch Ericht"
    },
    {
        "hill_id": 40,
        "hill_list": "Munros",
        "hill_name": "Monadh Mor",
        "meaning": "Big hill",
        "height": 1113,
        "height_drop": null,
        "latitude": 57.02664,
        "longitude": -3.75115,
        "os_ref": null,
        "region_name": "08 - Deeside to Speyside - The Cairngorms"
    },
    {
        "hill_id": 41,
        "hill_list": "Munros",
        "hill_name": "Tom a' Choinich",
        "meaning": "Hill of the moss",
        "height": 1112,
        "height_drop": null,
        "latitude": 57.29926,
        "longitude": -5.04898,
        "os_ref": null,
        "region_name": "11 - Glen Shiel to Loch Mullardoch"
    },
    {
        "hill_id": 42,
        "hill_list": "Munros",
        "hill_name": "Sgurr Mor",
        "meaning": "Big peak",
        "height": 1110,
        "height_drop": null,
        "latitude": 57.69998,
        "longitude": -5.01713,
        "os_ref": null,
        "region_name": "14 - Loch Maree to Loch Broom"
    },
    {
        "hill_id": 43,
        "hill_list": "Munros",
        "hill_name": "Carn a' Choire Boidheach",
        "meaning": "Hill of the beautiful corrie",
        "height": 1110,
        "height_drop": null,
        "latitude": 56.94526,
        "longitude": -3.27388,
        "os_ref": null,
        "region_name": "07 - Glen Shee to Glen Esk"
    },
    {
        "hill_id": 44,
        "hill_list": "Munros",
        "hill_name": "Sgurr nan Conbhairean",
        "meaning": "Peak of the keeper of the hounds",
        "height": 1109,
        "height_drop": null,
        "latitude": 57.17675,
        "longitude": -5.0968,
        "os_ref": null,
        "region_name": "11 - Glen Shiel to Loch Mullardoch"
    },
    {
        "hill_id": 45,
        "hill_list": "Munros",
        "hill_name": "Meall a' Bhuiridh",
        "meaning": "Hill of the bellowing (of stags)",
        "height": 1108,
        "height_drop": null,
        "latitude": 56.6118,
        "longitude": -4.85313,
        "os_ref": null,
        "region_name": "03 - Rannoch Moor to Loch Linnhe"
    },
    {
        "hill_id": 46,
        "hill_list": "Munros",
        "hill_name": "Stob a' Choire Mheadhoin",
        "meaning": "Peak of the middle corrie",
        "height": 1105,
        "height_drop": null,
        "latitude": 56.82329,
        "longitude": -4.76102,
        "os_ref": null,
        "region_name": "04 - Loch Linnhe to Loch Ericht"
    },
    {
        "hill_id": 47,
        "hill_list": "Munros",
        "hill_name": "Beinn Ghlas",
        "meaning": "Greenish-grey hill",
        "height": 1103,
        "height_drop": null,
        "latitude": 56.53543,
        "longitude": -4.23743,
        "os_ref": null,
        "region_name": "02 - Loch Tay to Rannoch Moor"
    },
    {
        "hill_id": 48,
        "hill_list": "Munros",
        "hill_name": "Mullach Fraoch-choire",
        "meaning": "Heather-corrie peak",
        "height": 1102,
        "height_drop": null,
        "latitude": 57.20495,
        "longitude": -5.15547,
        "os_ref": null,
        "region_name": "11 - Glen Shiel to Loch Mullardoch"
    },
    {
        "hill_id": 49,
        "hill_list": "Munros",
        "hill_name": "Beinn Eibhinn",
        "meaning": "Delightful hill",
        "height": 1102,
        "height_drop": null,
        "latitude": 56.82523,
        "longitude": -4.54315,
        "os_ref": null,
        "region_name": "04 - Loch Linnhe to Loch Ericht"
    },
    {
        "hill_id": 50,
        "hill_list": "Munros",
        "hill_name": "Creise",
        "meaning": "Unknown",
        "height": 1100,
        "height_drop": null,
        "latitude": 56.61404,
        "longitude": -4.87286,
        "os_ref": null,
        "region_name": "03 - Rannoch Moor to Loch Linnhe"
    },
    {
        "hill_id": 51,
        "hill_list": "Munros",
        "hill_name": "Sgurr a' Mhaim",
        "meaning": "Peak of the large rounded hill",
        "height": 1099,
        "height_drop": null,
        "latitude": 56.75564,
        "longitude": -5.00475,
        "os_ref": null,
        "region_name": "04 - Loch Linnhe to Loch Ericht"
    },
    {
        "hill_id": 52,
        "hill_list": "Munros",
        "hill_name": "Sgurr Choinnich Mor",
        "meaning": "Big peak of the moss",
        "height": 1094,
        "height_drop": null,
        "latitude": 56.80025,
        "longitude": -4.90511,
        "os_ref": null,
        "region_name": "04 - Loch Linnhe to Loch Ericht"
    },
    {
        "hill_id": 53,
        "hill_list": "Munros",
        "hill_name": "Sgurr nan Clach Geala",
        "meaning": "Peak of the white stones",
        "height": 1093,
        "height_drop": null,
        "latitude": 57.69653,
        "longitude": -5.04874,
        "os_ref": null,
        "region_name": "14 - Loch Maree to Loch Broom"
    },
    {
        "hill_id": 54,
        "hill_list": "Munros",
        "hill_name": "Stob Ghabhar",
        "meaning": "Goat peak",
        "height": 1090,
        "height_drop": null,
        "latitude": 56.56798,
        "longitude": -4.88239,
        "os_ref": null,
        "region_name": "03 - Rannoch Moor to Loch Linnhe"
    },
    {
        "hill_id": 55,
        "hill_list": "Munros",
        "hill_name": "Bynack More",
        "meaning": "Obscure",
        "height": 1090,
        "height_drop": null,
        "latitude": 57.13756,
        "longitude": -3.58618,
        "os_ref": null,
        "region_name": "08 - Deeside to Speyside - The Cairngorms"
    },
    {
        "hill_id": 56,
        "hill_list": "Munros",
        "hill_name": "Beinn a' Chlachair",
        "meaning": "Stonemason's hill",
        "height": 1087,
        "height_drop": null,
        "latitude": 56.86904,
        "longitude": -4.51003,
        "os_ref": null,
        "region_name": "04 - Loch Linnhe to Loch Ericht"
    },
    {
        "hill_id": 57,
        "hill_list": "Munros",
        "hill_name": "Beinn Dearg",
        "meaning": "Red hill",
        "height": 1084,
        "height_drop": null,
        "latitude": 57.78561,
        "longitude": -4.93005,
        "os_ref": null,
        "region_name": "15 - Loch Broom to the Cromarty Firth"
    },
    {
        "hill_id": 58,
        "hill_list": "Munros",
        "hill_name": "Schiehallion",
        "meaning": "The fairly hill of the Caledonians",
        "height": 1083,
        "height_drop": null,
        "latitude": 56.66631,
        "longitude": -4.10157,
        "os_ref": null,
        "region_name": "02 - Loch Tay to Rannoch Moor"
    },
    {
        "hill_id": 59,
        "hill_list": "Munros",
        "hill_name": "Sgurr a' Choire Ghlais",
        "meaning": "Peak of the greenish-grey corrie",
        "height": 1083,
        "height_drop": null,
        "latitude": 57.44383,
        "longitude": -4.90265,
        "os_ref": null,
        "region_name": "12 - Loch Mullardoch to Glen Carron"
    },
    {
        "hill_id": 60,
        "hill_list": "Munros",
        "hill_name": "Beinn a' Chaorainn",
        "meaning": "Hill of the rowan",
        "height": 1083,
        "height_drop": null,
        "latitude": 57.09274,
        "longitude": -3.57766,
        "os_ref": null,
        "region_name": "08 - Deeside to Speyside - The Cairngorms"
    },
    {
        "hill_id": 61,
        "hill_list": "Munros",
        "hill_name": "Beinn a' Chreachain",
        "meaning": "Hill of the rock, or hill of the clamshell",
        "height": 1081,
        "height_drop": null,
        "latitude": 56.55969,
        "longitude": -4.649,
        "os_ref": null,
        "region_name": "02 - Loch Tay to Rannoch Moor"
    },
    {
        "hill_id": 62,
        "hill_list": "Munros",
        "hill_name": "Beinn Heasgarnich",
        "meaning": "Perhaps sheltering or peaceful hill",
        "height": 1078,
        "height_drop": null,
        "latitude": 56.50991,
        "longitude": -4.5805,
        "os_ref": null,
        "region_name": "02 - Loch Tay to Rannoch Moor"
    },
    {
        "hill_id": 63,
        "hill_list": "Munros",
        "hill_name": "Ben Starav",
        "meaning": "Unknown",
        "height": 1078,
        "height_drop": null,
        "latitude": 56.53878,
        "longitude": -5.05099,
        "os_ref": null,
        "region_name": "03 - Rannoch Moor to Loch Linnhe"
    },
    {
        "hill_id": 64,
        "hill_list": "Munros",
        "hill_name": "Beinn Dorain",
        "meaning": "Gaelic dobhran, hill of the streamlet",
        "height": 1076,
        "height_drop": null,
        "latitude": 56.50237,
        "longitude": -4.72301,
        "os_ref": null,
        "region_name": "02 - Loch Tay to Rannoch Moor"
    },
    {
        "hill_id": 65,
        "hill_list": "Munros",
        "hill_name": "Stob Coire Sgreamach",
        "meaning": "Peak of the dreadful corrie",
        "height": 1072,
        "height_drop": null,
        "latitude": 56.63772,
        "longitude": -5.01167,
        "os_ref": null,
        "region_name": "03 - Rannoch Moor to Loch Linnhe"
    },
    {
        "hill_id": 66,
        "hill_list": "Munros",
        "hill_name": "Braigh Coire Chruinn-bhalgain",
        "meaning": "Upland of the corrie of the round blisters",
        "height": 1070,
        "height_drop": null,
        "latitude": 56.83106,
        "longitude": -3.73053,
        "os_ref": null,
        "region_name": "06 - Drumochter to Glen Shee"
    },
    {
        "hill_id": 67,
        "hill_list": "Munros",
        "hill_name": "Meall Corranaich",
        "meaning": "Notched, prickly hill",
        "height": 1069,
        "height_drop": null,
        "latitude": 56.54053,
        "longitude": -4.254,
        "os_ref": null,
        "region_name": "02 - Loch Tay to Rannoch Moor"
    },
    {
        "hill_id": 68,
        "hill_list": "Munros",
        "hill_name": "An Socach",
        "meaning": "The projecting place, or snout",
        "height": 1069,
        "height_drop": null,
        "latitude": 57.34956,
        "longitude": -5.15956,
        "os_ref": null,
        "region_name": "12 - Loch Mullardoch to Glen Carron"
    },
    {
        "hill_id": 69,
        "hill_list": "Munros",
        "hill_name": "Glas Maol",
        "meaning": "Greenish grey bare hill",
        "height": 1068,
        "height_drop": null,
        "latitude": 56.87239,
        "longitude": -3.3682,
        "os_ref": null,
        "region_name": "07 - Glen Shee to Glen Esk"
    },
    {
        "hill_id": 70,
        "hill_list": "Munros",
        "hill_name": "Sgurr Fhuaran",
        "meaning": "Obscure",
        "height": 1067,
        "height_drop": null,
        "latitude": 57.19545,
        "longitude": -5.3484,
        "os_ref": null,
        "region_name": "11 - Glen Shiel to Loch Mullardoch"
    },
    {
        "hill_id": 71,
        "hill_list": "Munros",
        "hill_name": "Cairn of Claise",
        "meaning": "Hill of the green grassy place",
        "height": 1064,
        "height_drop": null,
        "latitude": 56.89337,
        "longitude": -3.33942,
        "os_ref": null,
        "region_name": "07 - Glen Shee to Glen Esk"
    },
    {
        "hill_id": 72,
        "hill_list": "Munros",
        "hill_name": "Bidean a' Ghlas Thuill (An Teallach)",
        "meaning": "Peak of the greenish-grey hollow",
        "height": 1062,
        "height_drop": null,
        "latitude": 57.80648,
        "longitude": -5.25334,
        "os_ref": null,
        "region_name": "14 - Loch Maree to Loch Broom"
    },
    {
        "hill_id": 73,
        "hill_list": "Munros",
        "hill_name": "Sgurr Fiona (An Teallach)",
        "meaning": "Light coloured peak, or perhaps peak of wine",
        "height": 1060,
        "height_drop": null,
        "latitude": 57.80093,
        "longitude": -5.25957,
        "os_ref": null,
        "region_name": "14 - Loch Maree to Loch Broom"
    },
    {
        "hill_id": 74,
        "hill_list": "Munros",
        "hill_name": "Na Gruagaichean",
        "meaning": "The maidens",
        "height": 1056,
        "height_drop": null,
        "latitude": 56.7437,
        "longitude": -4.94,
        "os_ref": null,
        "region_name": "04 - Loch Linnhe to Loch Ericht"
    },
    {
        "hill_id": 75,
        "hill_list": "Munros",
        "hill_name": "Spidean a Choire Leith (Liathach)",
        "meaning": "Peak of the grey corrie",
        "height": 1055,
        "height_drop": null,
        "latitude": 57.56358,
        "longitude": -5.46412,
        "os_ref": null,
        "region_name": "13 - Glen Carron to Loch Maree"
    },
    {
        "hill_id": 76,
        "hill_list": "Munros",
        "hill_name": "Toll Creagach",
        "meaning": "Rocky hollow",
        "height": 1054,
        "height_drop": null,
        "latitude": 57.30853,
        "longitude": -4.99992,
        "os_ref": null,
        "region_name": "11 - Glen Shiel to Loch Mullardoch"
    },
    {
        "hill_id": 77,
        "hill_list": "Munros",
        "hill_name": "Stob Poite Coire Ardair",
        "meaning": "Peak of the pot of the high corrie",
        "height": 1054,
        "height_drop": null,
        "latitude": 56.96362,
        "longitude": -4.58713,
        "os_ref": null,
        "region_name": "09 - Speyside to Great Glen"
    },
    {
        "hill_id": 78,
        "hill_list": "Munros",
        "hill_name": "Sgurr a' Chaorachain",
        "meaning": "Peak of the little field of the berries",
        "height": 1053,
        "height_drop": null,
        "latitude": 57.45216,
        "longitude": -5.19009,
        "os_ref": null,
        "region_name": "12 - Loch Mullardoch to Glen Carron"
    },
    {
        "hill_id": 79,
        "hill_list": "Munros",
        "hill_name": "Beinn a' Chaorainn",
        "meaning": "Hill of the rowan",
        "height": 1052,
        "height_drop": null,
        "latitude": 56.92898,
        "longitude": -4.65376,
        "os_ref": null,
        "region_name": "09 - Speyside to Great Glen"
    },
    {
        "hill_id": 80,
        "hill_list": "Munros",
        "hill_name": "Glas Tulaichean",
        "meaning": "From glas-thulchan, green hills",
        "height": 1051,
        "height_drop": null,
        "latitude": 56.86567,
        "longitude": -3.55824,
        "os_ref": null,
        "region_name": "06 - Drumochter to Glen Shee"
    },
    {
        "hill_id": 81,
        "hill_list": "Munros",
        "hill_name": "Sgurr Fuar-thuill",
        "meaning": "Peak of the cold hollow",
        "height": 1049,
        "height_drop": null,
        "latitude": 57.44918,
        "longitude": -4.94308,
        "os_ref": null,
        "region_name": "12 - Loch Mullardoch to Glen Carron"
    },
    {
        "hill_id": 82,
        "hill_list": "Munros",
        "hill_name": "Geal Charn",
        "meaning": "White hill",
        "height": 1049,
        "height_drop": null,
        "latitude": 56.89704,
        "longitude": -4.45771,
        "os_ref": null,
        "region_name": "04 - Loch Linnhe to Loch Ericht"
    },
    {
        "hill_id": 83,
        "hill_list": "Munros",
        "hill_name": "Carn an t-Sagairt Mor",
        "meaning": "Big hill of the priest",
        "height": 1047,
        "height_drop": null,
        "latitude": 56.94316,
        "longitude": -3.3034,
        "os_ref": null,
        "region_name": "07 - Glen Shee to Glen Esk"
    },
    {
        "hill_id": 84,
        "hill_list": "Munros",
        "hill_name": "Creag Mhor",
        "meaning": "Big rock",
        "height": 1047,
        "height_drop": null,
        "latitude": 56.48941,
        "longitude": -4.61485,
        "os_ref": null,
        "region_name": "02 - Loch Tay to Rannoch Moor"
    },
    {
        "hill_id": 85,
        "hill_list": "Munros",
        "hill_name": "Chno Dearg",
        "meaning": "Red hill",
        "height": 1046,
        "height_drop": null,
        "latitude": 56.82995,
        "longitude": -4.6615,
        "os_ref": null,
        "region_name": "04 - Loch Linnhe to Loch Ericht"
    },
    {
        "hill_id": 86,
        "hill_list": "Munros",
        "hill_name": "Cruach Ardrain",
        "meaning": "Stack of the high part",
        "height": 1046,
        "height_drop": null,
        "latitude": 56.3563,
        "longitude": -4.57659,
        "os_ref": null,
        "region_name": "01 - Loch Fyne to Loch Tay"
    },
    {
        "hill_id": 87,
        "hill_list": "Munros",
        "hill_name": "Ben Wyvis, Glas Leathad Mor",
        "meaning": "Gaelic fuathas, meaning awesome hill",
        "height": 1046,
        "height_drop": null,
        "latitude": 57.67822,
        "longitude": -4.57915,
        "os_ref": null,
        "region_name": "15 - Loch Broom to the Cromarty Firth"
    },
    {
        "hill_id": 88,
        "hill_list": "Munros",
        "hill_name": "Beinn Iutharn Mhor",
        "meaning": "Big hill of the edge-point",
        "height": 1045,
        "height_drop": null,
        "latitude": 56.89429,
        "longitude": -3.56928,
        "os_ref": null,
        "region_name": "06 - Drumochter to Glen Shee"
    },
    {
        "hill_id": 89,
        "hill_list": "Munros",
        "hill_name": "Stob Coire 'an Albannaich",
        "meaning": "Peak of the corrie of the Scotsmen",
        "height": 1044,
        "height_drop": null,
        "latitude": 56.55487,
        "longitude": -4.98067,
        "os_ref": null,
        "region_name": "03 - Rannoch Moor to Loch Linnhe"
    },
    {
        "hill_id": 90,
        "hill_list": "Munros",
        "hill_name": "Meall nan Tarmachan",
        "meaning": "Hill of the ptarmigan",
        "height": 1044,
        "height_drop": null,
        "latitude": 56.52168,
        "longitude": -4.30165,
        "os_ref": null,
        "region_name": "02 - Loch Tay to Rannoch Moor"
    },
    {
        "hill_id": 91,
        "hill_list": "Munros",
        "hill_name": "Carn Mairg",
        "meaning": "Hill of sorrow",
        "height": 1041,
        "height_drop": null,
        "latitude": 56.63408,
        "longitude": -4.14706,
        "os_ref": null,
        "region_name": "02 - Loch Tay to Rannoch Moor"
    },
    {
        "hill_id": 92,
        "hill_list": "Munros",
        "hill_name": "Sgurr na Ciche",
        "meaning": "Peak of the breast",
        "height": 1040,
        "height_drop": null,
        "latitude": 57.0127,
        "longitude": -5.45718,
        "os_ref": null,
        "region_name": "10 - Loch Linnhe to Glen Shiel"
    },
    {
        "hill_id": 93,
        "hill_list": "Munros",
        "hill_name": "Meall Ghaordie",
        "meaning": "Gaelic gairdean, meaning a shoulder, arm, hand",
        "height": 1039,
        "height_drop": null,
        "latitude": 56.52577,
        "longitude": -4.41735,
        "os_ref": null,
        "region_name": "02 - Loch Tay to Rannoch Moor"
    },
    {
        "hill_id": 94,
        "hill_list": "Munros",
        "hill_name": "Beinn Achaladair",
        "meaning": "From Celtic meaning the field of hard water",
        "height": 1038,
        "height_drop": null,
        "latitude": 56.5515,
        "longitude": -4.69562,
        "os_ref": null,
        "region_name": "02 - Loch Tay to Rannoch Moor"
    },
    {
        "hill_id": 95,
        "hill_list": "Munros",
        "hill_name": "Carn a' Mhaim",
        "meaning": "Hill of the pass",
        "height": 1037,
        "height_drop": null,
        "latitude": 57.03598,
        "longitude": -3.6593,
        "os_ref": null,
        "region_name": "08 - Deeside to Speyside - The Cairngorms"
    },
    {
        "hill_id": 96,
        "hill_list": "Munros",
        "hill_name": "Sgurr a' Bhealaich Dheirg",
        "meaning": "Peak of the red pass",
        "height": 1036,
        "height_drop": null,
        "latitude": 57.1773,
        "longitude": -5.25241,
        "os_ref": null,
        "region_name": "11 - Glen Shiel to Loch Mullardoch"
    },
    {
        "hill_id": 97,
        "hill_list": "Munros",
        "hill_name": "Gleouraich",
        "meaning": "Possibly uproar or noise",
        "height": 1035,
        "height_drop": null,
        "latitude": 57.09676,
        "longitude": -5.23874,
        "os_ref": null,
        "region_name": "10 - Loch Linnhe to Glen Shiel"
    },
    {
        "hill_id": 98,
        "hill_list": "Munros",
        "hill_name": "Carn Dearg",
        "meaning": "Red hill",
        "height": 1034,
        "height_drop": null,
        "latitude": 56.85485,
        "longitude": -4.45495,
        "os_ref": null,
        "region_name": "04 - Loch Linnhe to Loch Ericht"
    },
    {
        "hill_id": 99,
        "hill_list": "Munros",
        "hill_name": "Beinn Fhada",
        "meaning": "Long hill",
        "height": 1032,
        "height_drop": null,
        "latitude": 57.22052,
        "longitude": -5.28439,
        "os_ref": null,
        "region_name": "11 - Glen Shiel to Loch Mullardoch"
    },
    {
        "hill_id": 100,
        "hill_list": "Munros",
        "hill_name": "Am Bodach",
        "meaning": "The old man",
        "height": 1032,
        "height_drop": null,
        "latitude": 56.74086,
        "longitude": -4.98394,
        "os_ref": null,
        "region_name": "04 - Loch Linnhe to Loch Ericht"
    },
    {
        "hill_id": 101,
        "hill_list": "Munros",
        "hill_name": "Ben Oss",
        "meaning": "Loch-outlet hill",
        "height": 1029,
        "height_drop": null,
        "latitude": 56.38883,
        "longitude": -4.77647,
        "os_ref": null,
        "region_name": "01 - Loch Fyne to Loch Tay"
    },
    {
        "hill_id": 102,
        "hill_list": "Munros",
        "hill_name": "Carn an Righ",
        "meaning": "Hill of the king",
        "height": 1029,
        "height_drop": null,
        "latitude": 56.87597,
        "longitude": -3.59641,
        "os_ref": null,
        "region_name": "06 - Drumochter to Glen Shee"
    },
    {
        "hill_id": 103,
        "hill_list": "Munros",
        "hill_name": "Carn Gorm",
        "meaning": "Blue hill",
        "height": 1029,
        "height_drop": null,
        "latitude": 56.62191,
        "longitude": -4.22625,
        "os_ref": null,
        "region_name": "02 - Loch Tay to Rannoch Moor"
    },
    {
        "hill_id": 104,
        "hill_list": "Munros",
        "hill_name": "Sgurr na Ciste Duibhe",
        "meaning": "Peak of the black chest",
        "height": 1027,
        "height_drop": null,
        "latitude": 57.18047,
        "longitude": -5.33711,
        "os_ref": null,
        "region_name": "11 - Glen Shiel to Loch Mullardoch"
    },
    {
        "hill_id": 105,
        "hill_list": "Munros",
        "hill_name": "Sgurr a' Mhaoraich",
        "meaning": "Peak of the shellfish",
        "height": 1027,
        "height_drop": null,
        "latitude": 57.1051,
        "longitude": -5.33198,
        "os_ref": null,
        "region_name": "10 - Loch Linnhe to Glen Shiel"
    },
    {
        "hill_id": 106,
        "hill_list": "Munros",
        "hill_name": "Ben Challum",
        "meaning": "Malcolm's hill",
        "height": 1025,
        "height_drop": null,
        "latitude": 56.45424,
        "longitude": -4.62055,
        "os_ref": null,
        "region_name": "02 - Loch Tay to Rannoch Moor"
    },
    {
        "hill_id": 107,
        "hill_list": "Munros",
        "hill_name": "Sgorr Dhearg (Beinn a' Bheithir)",
        "meaning": "Red peak",
        "height": 1024,
        "height_drop": null,
        "latitude": 56.65349,
        "longitude": -5.17286,
        "os_ref": null,
        "region_name": "03 - Rannoch Moor to Loch Linnhe"
    },
    {
        "hill_id": 108,
        "hill_list": "Munros",
        "hill_name": "Mullach an Rathain (Liathach)",
        "meaning": "Summit of the row of pinnacles",
        "height": 1023,
        "height_drop": null,
        "latitude": 57.561,
        "longitude": -5.49231,
        "os_ref": null,
        "region_name": "13 - Glen Carron to Loch Maree"
    },
    {
        "hill_id": 109,
        "hill_list": "Munros",
        "hill_name": "Buachaille Etive Mor, Stob Dearg",
        "meaning": "Big herdsman of Etive, red peak",
        "height": 1021,
        "height_drop": null,
        "latitude": 56.64574,
        "longitude": -4.90137,
        "os_ref": null,
        "region_name": "03 - Rannoch Moor to Loch Linnhe"
    },
    {
        "hill_id": 110,
        "hill_list": "Munros",
        "hill_name": "Aonach air Chrith",
        "meaning": "Trembling hill",
        "height": 1021,
        "height_drop": null,
        "latitude": 57.12413,
        "longitude": -5.22296,
        "os_ref": null,
        "region_name": "10 - Loch Linnhe to Glen Shiel"
    },
    {
        "hill_id": 111,
        "hill_list": "Munros",
        "hill_name": "Ladhar Bheinn",
        "meaning": "Hoof or claw hill",
        "height": 1020,
        "height_drop": null,
        "latitude": 57.0745,
        "longitude": -5.59333,
        "os_ref": null,
        "region_name": "10 - Loch Linnhe to Glen Shiel"
    },
    {
        "hill_id": 112,
        "hill_list": "Munros",
        "hill_name": "Carn an Tuirc",
        "meaning": "Hill of the boar",
        "height": 1019,
        "height_drop": null,
        "latitude": 56.90754,
        "longitude": -3.35799,
        "os_ref": null,
        "region_name": "07 - Glen Shee to Glen Esk"
    },
    {
        "hill_id": 113,
        "hill_list": "Munros",
        "hill_name": "Beinn Bheoil",
        "meaning": "Hill of the mouth",
        "height": 1019,
        "height_drop": null,
        "latitude": 56.81306,
        "longitude": -4.43255,
        "os_ref": null,
        "region_name": "04 - Loch Linnhe to Loch Ericht"
    },
    {
        "hill_id": 114,
        "hill_list": "Munros",
        "hill_name": "Mullach Clach a' Bhlair",
        "meaning": "Summit of the stone of the plain",
        "height": 1019,
        "height_drop": null,
        "latitude": 57.01188,
        "longitude": -3.84104,
        "os_ref": null,
        "region_name": "08 - Deeside to Speyside - The Cairngorms"
    },
    {
        "hill_id": 115,
        "hill_list": "Munros",
        "hill_name": "Mullach Coire Mhic Fhearchair",
        "meaning": "Summit of the corrie of Farquhar's son",
        "height": 1018,
        "height_drop": null,
        "latitude": 57.70894,
        "longitude": -5.27144,
        "os_ref": null,
        "region_name": "14 - Loch Maree to Loch Broom"
    },
    {
        "hill_id": 116,
        "hill_list": "Munros",
        "hill_name": "Garbh Chioch Mhor",
        "meaning": "Big rough place of the breast",
        "height": 1013,
        "height_drop": null,
        "latitude": 57.00854,
        "longitude": -5.44526,
        "os_ref": null,
        "region_name": "10 - Loch Linnhe to Glen Shiel"
    },
    {
        "hill_id": 117,
        "hill_list": "Munros",
        "hill_name": "Cairn Bannoch",
        "meaning": "Hill of the point",
        "height": 1012,
        "height_drop": null,
        "latitude": 56.92723,
        "longitude": -3.27984,
        "os_ref": null,
        "region_name": "07 - Glen Shee to Glen Esk"
    },
    {
        "hill_id": 118,
        "hill_list": "Munros",
        "hill_name": "Ben Ime",
        "meaning": "Butter hill",
        "height": 1011,
        "height_drop": null,
        "latitude": 56.23601,
        "longitude": -4.81704,
        "os_ref": null,
        "region_name": "01 - Loch Fyne to Loch Tay"
    },
    {
        "hill_id": 119,
        "hill_list": "Munros",
        "hill_name": "Beinn Udlamain",
        "meaning": "Gloomy mountain",
        "height": 1011,
        "height_drop": null,
        "latitude": 56.83477,
        "longitude": -4.33067,
        "os_ref": null,
        "region_name": "05 - Loch Ericht to Drumochter"
    },
    {
        "hill_id": 120,
        "hill_list": "Munros",
        "hill_name": "Beinn Eighe (Ruadh-stac Mor)",
        "meaning": "File hill (big red peak)",
        "height": 1010,
        "height_drop": null,
        "latitude": 57.59327,
        "longitude": -5.43012,
        "os_ref": null,
        "region_name": "13 - Glen Carron to Loch Maree"
    },
    {
        "hill_id": 121,
        "hill_list": "Munros",
        "hill_name": "Sgurr Eilde Mor",
        "meaning": "Big peak of the hind",
        "height": 1010,
        "height_drop": null,
        "latitude": 56.74922,
        "longitude": -4.89626,
        "os_ref": null,
        "region_name": "04 - Loch Linnhe to Loch Ericht"
    },
    {
        "hill_id": 122,
        "hill_list": "Munros",
        "hill_name": "The Saddle",
        "meaning": "The Saddle",
        "height": 1010,
        "height_drop": null,
        "latitude": 57.1622,
        "longitude": -5.41488,
        "os_ref": null,
        "region_name": "10 - Loch Linnhe to Glen Shiel"
    },
    {
        "hill_id": 123,
        "hill_list": "Munros",
        "hill_name": "Sgurr an Doire Leathain",
        "meaning": "Peak of the broad thicket",
        "height": 1010,
        "height_drop": null,
        "latitude": 57.13698,
        "longitude": -5.28194,
        "os_ref": null,
        "region_name": "10 - Loch Linnhe to Glen Shiel"
    },
    {
        "hill_id": 124,
        "hill_list": "Munros",
        "hill_name": "Beinn Dearg",
        "meaning": "Red hill",
        "height": 1008,
        "height_drop": null,
        "latitude": 56.87644,
        "longitude": -3.88524,
        "os_ref": null,
        "region_name": "06 - Drumochter to Glen Shee"
    },
    {
        "hill_id": 125,
        "hill_list": "Munros",
        "hill_name": "An Sgarsoch",
        "meaning": "The place of the sharp rocks",
        "height": 1006,
        "height_drop": null,
        "latitude": 56.93135,
        "longitude": -3.7549,
        "os_ref": null,
        "region_name": "06 - Drumochter to Glen Shee"
    },
    {
        "hill_id": 126,
        "hill_list": "Munros",
        "hill_name": "Carn Liath",
        "meaning": "Grey hill",
        "height": 1006,
        "height_drop": null,
        "latitude": 56.97856,
        "longitude": -4.51575,
        "os_ref": null,
        "region_name": "09 - Speyside to Great Glen"
    },
    {
        "hill_id": 127,
        "hill_list": "Munros",
        "hill_name": "Maoile Lunndaidh",
        "meaning": "Bare hill of the wet place",
        "height": 1005,
        "height_drop": null,
        "latitude": 57.46402,
        "longitude": -5.11107,
        "os_ref": null,
        "region_name": "12 - Loch Mullardoch to Glen Carron"
    },
    {
        "hill_id": 128,
        "hill_list": "Munros",
        "hill_name": "Beinn Fhionnlaidh",
        "meaning": "Finlay's hill",
        "height": 1005,
        "height_drop": null,
        "latitude": 57.30534,
        "longitude": -5.13086,
        "os_ref": null,
        "region_name": "11 - Glen Shiel to Loch Mullardoch"
    },
    {
        "hill_id": 129,
        "hill_list": "Munros",
        "hill_name": "Sgurr an Lochain",
        "meaning": "Peak of the little loch",
        "height": 1004,
        "height_drop": null,
        "latitude": 57.14103,
        "longitude": -5.29883,
        "os_ref": null,
        "region_name": "10 - Loch Linnhe to Glen Shiel"
    },
    {
        "hill_id": 130,
        "hill_list": "Munros",
        "hill_name": "Beinn an Dothaidh",
        "meaning": "Hill of the scorching or singeing",
        "height": 1004,
        "height_drop": null,
        "latitude": 56.5295,
        "longitude": -4.7152,
        "os_ref": null,
        "region_name": "02 - Loch Tay to Rannoch Moor"
    },
    {
        "hill_id": 131,
        "hill_list": "Munros",
        "hill_name": "The Devil's Point",
        "meaning": "Penis of the demon",
        "height": 1004,
        "height_drop": null,
        "latitude": 57.03558,
        "longitude": -3.68895,
        "os_ref": null,
        "region_name": "08 - Deeside to Speyside - The Cairngorms"
    },
    {
        "hill_id": 132,
        "hill_list": "Munros",
        "hill_name": "Sgurr Mor",
        "meaning": "Big peak",
        "height": 1003,
        "height_drop": null,
        "latitude": 57.02808,
        "longitude": -5.35475,
        "os_ref": null,
        "region_name": "10 - Loch Linnhe to Glen Shiel"
    },
    {
        "hill_id": 133,
        "hill_list": "Munros",
        "hill_name": "Sail Chaorainn",
        "meaning": "Hill of the rowan",
        "height": 1002,
        "height_drop": null,
        "latitude": 57.19126,
        "longitude": -5.09139,
        "os_ref": null,
        "region_name": "11 - Glen Shiel to Loch Mullardoch"
    },
    {
        "hill_id": 134,
        "hill_list": "Munros",
        "hill_name": "Sgurr na Carnach",
        "meaning": "Stony peak",
        "height": 1002,
        "height_drop": null,
        "latitude": 57.18823,
        "longitude": -5.3494,
        "os_ref": null,
        "region_name": "11 - Glen Shiel to Loch Mullardoch"
    },
    {
        "hill_id": 135,
        "hill_list": "Munros",
        "hill_name": "Sgorr Dhonuill (Beinn a' Bheithir)",
        "meaning": "Donald's peak",
        "height": 1001,
        "height_drop": null,
        "latitude": 56.65013,
        "longitude": -5.19869,
        "os_ref": null,
        "region_name": "03 - Rannoch Moor to Loch Linnhe"
    },
    {
        "hill_id": 136,
        "hill_list": "Munros",
        "hill_name": "Meall Greigh",
        "meaning": "Hill of horse studs",
        "height": 1001,
        "height_drop": null,
        "latitude": 56.56737,
        "longitude": -4.15956,
        "os_ref": null,
        "region_name": "02 - Loch Tay to Rannoch Moor"
    },
    {
        "hill_id": 137,
        "hill_list": "Munros",
        "hill_name": "Aonach Mheadhoin",
        "meaning": "Middle hill",
        "height": 1001,
        "height_drop": null,
        "latitude": 57.17252,
        "longitude": -5.22883,
        "os_ref": null,
        "region_name": "11 - Glen Shiel to Loch Mullardoch"
    },
    {
        "hill_id": 138,
        "hill_list": "Munros",
        "hill_name": "Sgurr Choinnich",
        "meaning": "Moss peak",
        "height": 999,
        "height_drop": null,
        "latitude": 57.45079,
        "longitude": -5.20832,
        "os_ref": null,
        "region_name": "12 - Loch Mullardoch to Glen Carron"
    },
    {
        "hill_id": 139,
        "hill_list": "Munros",
        "hill_name": "Stob Ban",
        "meaning": "White peak",
        "height": 999,
        "height_drop": null,
        "latitude": 56.7433,
        "longitude": -5.03157,
        "os_ref": null,
        "region_name": "04 - Loch Linnhe to Loch Ericht"
    },
    {
        "hill_id": 140,
        "hill_list": "Munros",
        "hill_name": "Sgurr Breac",
        "meaning": "Speckled peak",
        "height": 999,
        "height_drop": null,
        "latitude": 57.69189,
        "longitude": -5.09199,
        "os_ref": null,
        "region_name": "14 - Loch Maree to Loch Broom"
    },
    {
        "hill_id": 141,
        "hill_list": "Munros",
        "hill_name": "Ben More Assynt",
        "meaning": "Big hill of Assynt (Norse: ass, a rocky ridge)",
        "height": 998,
        "height_drop": null,
        "latitude": 58.13773,
        "longitude": -4.85868,
        "os_ref": null,
        "region_name": "16 - Loch Broom to the Pentland Firth"
    },
    {
        "hill_id": 142,
        "hill_list": "Munros",
        "hill_name": "Broad Cairn",
        "meaning": "Broad cairn",
        "height": 998,
        "height_drop": null,
        "latitude": 56.91855,
        "longitude": -3.24997,
        "os_ref": null,
        "region_name": "07 - Glen Shee to Glen Esk"
    },
    {
        "hill_id": 143,
        "hill_list": "Munros",
        "hill_name": "Stob Diamh",
        "meaning": "Peak of the stag",
        "height": 998,
        "height_drop": null,
        "latitude": 56.43078,
        "longitude": -5.09262,
        "os_ref": null,
        "region_name": "03 - Rannoch Moor to Loch Linnhe"
    },
    {
        "hill_id": 144,
        "hill_list": "Munros",
        "hill_name": "A' Chailleach",
        "meaning": "The old woman",
        "height": 997,
        "height_drop": null,
        "latitude": 57.69367,
        "longitude": -5.12907,
        "os_ref": null,
        "region_name": "14 - Loch Maree to Loch Broom"
    },
    {
        "hill_id": 145,
        "hill_list": "Munros",
        "hill_name": "Glas Bheinn Mhor",
        "meaning": "Big greenish-grey hill",
        "height": 997,
        "height_drop": null,
        "latitude": 56.54169,
        "longitude": -5.00567,
        "os_ref": null,
        "region_name": "03 - Rannoch Moor to Loch Linnhe"
    },
    {
        "hill_id": 146,
        "hill_list": "Munros",
        "hill_name": "Spidean Mialach",
        "meaning": "Peak of deer, or other wild animals",
        "height": 996,
        "height_drop": null,
        "latitude": 57.08893,
        "longitude": -5.19348,
        "os_ref": null,
        "region_name": "10 - Loch Linnhe to Glen Shiel"
    },
    {
        "hill_id": 147,
        "hill_list": "Munros",
        "hill_name": "An Caisteal",
        "meaning": "The castle",
        "height": 995,
        "height_drop": null,
        "latitude": 56.3382,
        "longitude": -4.62553,
        "os_ref": null,
        "region_name": "01 - Loch Fyne to Loch Tay"
    },
    {
        "hill_id": 148,
        "hill_list": "Munros",
        "hill_name": "Sgor na h-Ulaidh",
        "meaning": "Peak of the treasure",
        "height": 994,
        "height_drop": null,
        "latitude": 56.61986,
        "longitude": -5.08036,
        "os_ref": null,
        "region_name": "03 - Rannoch Moor to Loch Linnhe"
    },
    {
        "hill_id": 149,
        "hill_list": "Munros",
        "hill_name": "Carn an Fhidhleir",
        "meaning": "Hill of the fiddler",
        "height": 994,
        "height_drop": null,
        "latitude": 56.93606,
        "longitude": -3.80278,
        "os_ref": null,
        "region_name": "06 - Drumochter to Glen Shee"
    },
    {
        "hill_id": 150,
        "hill_list": "Munros",
        "hill_name": "Spidean Coire nan Clach (Beinn Eighe)",
        "meaning": "Peak of the stony corrie",
        "height": 993,
        "height_drop": null,
        "latitude": 57.5814,
        "longitude": -5.40389,
        "os_ref": null,
        "region_name": "13 - Glen Carron to Loch Maree"
    },
    {
        "hill_id": 151,
        "hill_list": "Munros",
        "hill_name": "Sgurr na Ruaidhe",
        "meaning": "Peak of the redness",
        "height": 993,
        "height_drop": null,
        "latitude": 57.44134,
        "longitude": -4.85412,
        "os_ref": null,
        "region_name": "12 - Loch Mullardoch to Glen Carron"
    },
    {
        "hill_id": 152,
        "hill_list": "Munros",
        "hill_name": "Sgurr Alasdair",
        "meaning": "Alexander's peak (after Sherriff Alexander Nicholson)",
        "height": 992,
        "height_drop": null,
        "latitude": 57.20587,
        "longitude": -6.22411,
        "os_ref": null,
        "region_name": "17 - The Islands"
    },
    {
        "hill_id": 153,
        "hill_list": "Munros",
        "hill_name": "Carn nan Gobhar (Glen Strathfarrar)",
        "meaning": "Hill of the goats",
        "height": 992,
        "height_drop": null,
        "latitude": 57.45244,
        "longitude": -4.87999,
        "os_ref": null,
        "region_name": "12 - Loch Mullardoch to Glen Carron"
    },
    {
        "hill_id": 154,
        "hill_list": "Munros",
        "hill_name": "Carn nan Gobhar (Glen Cannich)",
        "meaning": "Hill of the goats",
        "height": 992,
        "height_drop": null,
        "latitude": 57.36273,
        "longitude": -5.02597,
        "os_ref": null,
        "region_name": "12 - Loch Mullardoch to Glen Carron"
    },
    {
        "hill_id": 155,
        "hill_list": "Munros",
        "hill_name": "Sgairneach Mhor",
        "meaning": "Big stony hillside",
        "height": 991,
        "height_drop": null,
        "latitude": 56.82817,
        "longitude": -4.29912,
        "os_ref": null,
        "region_name": "05 - Loch Ericht to Drumochter"
    },
    {
        "hill_id": 156,
        "hill_list": "Munros",
        "hill_name": "Sgurr Ban (Letterewe)",
        "meaning": "White peak",
        "height": 989,
        "height_drop": null,
        "latitude": 57.71804,
        "longitude": -5.26722,
        "os_ref": null,
        "region_name": "14 - Loch Maree to Loch Broom"
    },
    {
        "hill_id": 157,
        "hill_list": "Munros",
        "hill_name": "Beinn Eunaich",
        "meaning": "Fowling hill",
        "height": 989,
        "height_drop": null,
        "latitude": 56.45037,
        "longitude": -5.02766,
        "os_ref": null,
        "region_name": "03 - Rannoch Moor to Loch Linnhe"
    },
    {
        "hill_id": 158,
        "hill_list": "Munros",
        "hill_name": "Creag Leachach",
        "meaning": "Slabby rock",
        "height": 987,
        "height_drop": null,
        "latitude": 56.8542,
        "longitude": -3.38885,
        "os_ref": null,
        "region_name": "07 - Glen Shee to Glen Esk"
    },
    {
        "hill_id": 159,
        "hill_list": "Munros",
        "hill_name": "Gulvain",
        "meaning": "Gaelic gaorr (filth) or gaoir (noise)",
        "height": 987,
        "height_drop": null,
        "latitude": 56.93553,
        "longitude": -5.28558,
        "os_ref": null,
        "region_name": "10 - Loch Linnhe to Glen Shiel"
    },
    {
        "hill_id": 160,
        "hill_list": "Munros",
        "hill_name": "Druim Shionnach",
        "meaning": "Ridge of the fox",
        "height": 987,
        "height_drop": null,
        "latitude": 57.12604,
        "longitude": -5.18346,
        "os_ref": null,
        "region_name": "10 - Loch Linnhe to Glen Shiel"
    },
    {
        "hill_id": 161,
        "hill_list": "Munros",
        "hill_name": "Conival",
        "meaning": "Hill of the dog, or hill of the meeting",
        "height": 987,
        "height_drop": null,
        "latitude": 58.13536,
        "longitude": -4.88398,
        "os_ref": null,
        "region_name": "16 - Loch Broom to the Pentland Firth"
    },
    {
        "hill_id": 162,
        "hill_list": "Munros",
        "hill_name": "Sgurr Dearg (The Inaccessible Pinnacle)",
        "meaning": "Red peak",
        "height": 986,
        "height_drop": null,
        "latitude": 57.2127,
        "longitude": -6.23484,
        "os_ref": null,
        "region_name": "17 - The Islands"
    },
    {
        "hill_id": 163,
        "hill_list": "Munros",
        "hill_name": "Lurg Mhor",
        "meaning": "Big ridge stretching into the plain",
        "height": 986,
        "height_drop": null,
        "latitude": 57.41266,
        "longitude": -5.2233,
        "os_ref": null,
        "region_name": "12 - Loch Mullardoch to Glen Carron"
    },
    {
        "hill_id": 164,
        "hill_list": "Munros",
        "hill_name": "Sgurr Mhor (Beinn Alligin)",
        "meaning": "Possibly jewelled hill",
        "height": 986,
        "height_drop": null,
        "latitude": 57.59108,
        "longitude": -5.57388,
        "os_ref": null,
        "region_name": "13 - Glen Carron to Loch Maree"
    },
    {
        "hill_id": 165,
        "hill_list": "Munros",
        "hill_name": "Ben Vorlich (by Loch Earn)",
        "meaning": "Hill of the bay",
        "height": 985,
        "height_drop": null,
        "latitude": 56.34254,
        "longitude": -4.21965,
        "os_ref": null,
        "region_name": "01 - Loch Fyne to Loch Tay"
    },
    {
        "hill_id": 166,
        "hill_list": "Munros",
        "hill_name": "An Gearanach",
        "meaning": "The complainer",
        "height": 982,
        "height_drop": null,
        "latitude": 56.75833,
        "longitude": -4.96733,
        "os_ref": null,
        "region_name": "04 - Loch Linnhe to Loch Ericht"
    },
    {
        "hill_id": 167,
        "hill_list": "Munros",
        "hill_name": "Mullach na Dheiragain",
        "meaning": "Perhaps summit of the hawk",
        "height": 982,
        "height_drop": null,
        "latitude": 57.28325,
        "longitude": -5.18707,
        "os_ref": null,
        "region_name": "11 - Glen Shiel to Loch Mullardoch"
    },
    {
        "hill_id": 168,
        "hill_list": "Munros",
        "hill_name": "Meall nan Aighean",
        "meaning": "Big rock",
        "height": 981,
        "height_drop": null,
        "latitude": 56.62,
        "longitude": -4.12996,
        "os_ref": null,
        "region_name": "02 - Loch Tay to Rannoch Moor"
    },
    {
        "hill_id": 169,
        "hill_list": "Munros",
        "hill_name": "Maol Chinn-dearg",
        "meaning": "Bald red head",
        "height": 981,
        "height_drop": null,
        "latitude": 57.12695,
        "longitude": -5.25295,
        "os_ref": null,
        "region_name": "10 - Loch Linnhe to Glen Shiel"
    },
    {
        "hill_id": 170,
        "hill_list": "Munros",
        "hill_name": "Slioch - North Top",
        "meaning": "Gaelic sleacgh, a spear",
        "height": 981,
        "height_drop": null,
        "latitude": 57.66649,
        "longitude": -5.34813,
        "os_ref": null,
        "region_name": "14 - Loch Maree to Loch Broom"
    },
    {
        "hill_id": 171,
        "hill_list": "Munros",
        "hill_name": "Stob Coire a' Chairn",
        "meaning": "Peak of the corrie of the cairn",
        "height": 981,
        "height_drop": null,
        "latitude": 56.75018,
        "longitude": -4.96996,
        "os_ref": null,
        "region_name": "04 - Loch Linnhe to Loch Ericht"
    },
    {
        "hill_id": 172,
        "hill_list": "Munros",
        "hill_name": "Beinn a' Chochuill",
        "meaning": "Hill of the hood or shell",
        "height": 980,
        "height_drop": null,
        "latitude": 56.44933,
        "longitude": -5.06978,
        "os_ref": null,
        "region_name": "03 - Rannoch Moor to Loch Linnhe"
    },
    {
        "hill_id": 173,
        "hill_list": "Munros",
        "hill_name": "Ciste Dhubh",
        "meaning": "Black chest",
        "height": 979,
        "height_drop": null,
        "latitude": 57.19908,
        "longitude": -5.20962,
        "os_ref": null,
        "region_name": "11 - Glen Shiel to Loch Mullardoch"
    },
    {
        "hill_id": 174,
        "hill_list": "Munros",
        "hill_name": "Stob Coire Sgriodain",
        "meaning": "Peak of the corrie of the scree",
        "height": 979,
        "height_drop": null,
        "latitude": 56.83101,
        "longitude": -4.69601,
        "os_ref": null,
        "region_name": "04 - Loch Linnhe to Loch Ericht"
    },
    {
        "hill_id": 175,
        "hill_list": "Munros",
        "hill_name": "Cona' Mheall",
        "meaning": "Hill of the dog, or hill of the meeting",
        "height": 978,
        "height_drop": null,
        "latitude": 57.79068,
        "longitude": -4.90522,
        "os_ref": null,
        "region_name": "15 - Loch Broom to the Cromarty Firth"
    },
    {
        "hill_id": 176,
        "hill_list": "Munros",
        "hill_name": "Beinn Dubhchraig",
        "meaning": "Black-rock hill",
        "height": 978,
        "height_drop": null,
        "latitude": 56.39045,
        "longitude": -4.74417,
        "os_ref": null,
        "region_name": "01 - Loch Fyne to Loch Tay"
    },
    {
        "hill_id": 177,
        "hill_list": "Munros",
        "hill_name": "Meall nan Ceapraichean",
        "meaning": "Ceap, meaning a back or hilltop",
        "height": 977,
        "height_drop": null,
        "latitude": 57.79809,
        "longitude": -4.93443,
        "os_ref": null,
        "region_name": "15 - Loch Broom to the Cromarty Firth"
    },
    {
        "hill_id": 178,
        "hill_list": "Munros",
        "hill_name": "Stob Ban",
        "meaning": "White peak",
        "height": 977,
        "height_drop": null,
        "latitude": 56.80979,
        "longitude": -4.84195,
        "os_ref": null,
        "region_name": "04 - Loch Linnhe to Loch Ericht"
    },
    {
        "hill_id": 179,
        "hill_list": "Munros",
        "hill_name": "Stuc a' Chroin",
        "meaning": "Peak of harm or danger",
        "height": 975,
        "height_drop": null,
        "latitude": 56.32872,
        "longitude": -4.23826,
        "os_ref": null,
        "region_name": "01 - Loch Fyne to Loch Tay"
    },
    {
        "hill_id": 180,
        "hill_list": "Munros",
        "hill_name": "Carn a' Gheoidh",
        "meaning": "Hill of the goose",
        "height": 975,
        "height_drop": null,
        "latitude": 56.87307,
        "longitude": -3.46667,
        "os_ref": null,
        "region_name": "06 - Drumochter to Glen Shee"
    },
    {
        "hill_id": 181,
        "hill_list": "Munros",
        "hill_name": "A' Mharconaich",
        "meaning": "The horse place",
        "height": 975,
        "height_drop": null,
        "latitude": 56.85617,
        "longitude": -4.291,
        "os_ref": null,
        "region_name": "05 - Loch Ericht to Drumochter"
    },
    {
        "hill_id": 182,
        "hill_list": "Munros",
        "hill_name": "Carn Liath",
        "meaning": "Grey hill",
        "height": 975,
        "height_drop": null,
        "latitude": 56.80751,
        "longitude": -3.74419,
        "os_ref": null,
        "region_name": "06 - Drumochter to Glen Shee"
    },
    {
        "hill_id": 183,
        "hill_list": "Munros",
        "hill_name": "Beinn Sgritheall",
        "meaning": "Probably scree or gravel hill",
        "height": 974,
        "height_drop": null,
        "latitude": 57.15306,
        "longitude": -5.5811,
        "os_ref": null,
        "region_name": "10 - Loch Linnhe to Glen Shiel"
    },
    {
        "hill_id": 184,
        "hill_list": "Munros",
        "hill_name": "Ben Lomond",
        "meaning": "Beacon hill",
        "height": 974,
        "height_drop": null,
        "latitude": 56.18973,
        "longitude": -4.63311,
        "os_ref": null,
        "region_name": "01 - Loch Fyne to Loch Tay"
    },
    {
        "hill_id": 185,
        "hill_list": "Munros",
        "hill_name": "Sgurr a' Ghreadhaidh",
        "meaning": "Peak of torment, anxiety",
        "height": 973,
        "height_drop": null,
        "latitude": 57.22799,
        "longitude": -6.23493,
        "os_ref": null,
        "region_name": "17 - The Islands"
    },
    {
        "hill_id": 186,
        "hill_list": "Munros",
        "hill_name": "Meall Garbh",
        "meaning": "Rough hill",
        "height": 968,
        "height_drop": null,
        "latitude": 56.63751,
        "longitude": -4.2076,
        "os_ref": null,
        "region_name": "02 - Loch Tay to Rannoch Moor"
    },
    {
        "hill_id": 187,
        "hill_list": "Munros",
        "hill_name": "A' Mhaighdean",
        "meaning": "The maiden",
        "height": 967,
        "height_drop": null,
        "latitude": 57.71952,
        "longitude": -5.34799,
        "os_ref": null,
        "region_name": "14 - Loch Maree to Loch Broom"
    },
    {
        "hill_id": 188,
        "hill_list": "Munros",
        "hill_name": "Sgorr nam Fiannaidh (Aonach Eagach)",
        "meaning": "Peak of the Fian warriors",
        "height": 967,
        "height_drop": null,
        "latitude": 56.67933,
        "longitude": -5.03786,
        "os_ref": null,
        "region_name": "03 - Rannoch Moor to Loch Linnhe"
    },
    {
        "hill_id": 189,
        "hill_list": "Munros",
        "hill_name": "Ben More",
        "meaning": "Big hill",
        "height": 966,
        "height_drop": null,
        "latitude": 56.42411,
        "longitude": -6.0152,
        "os_ref": null,
        "region_name": "17 - The Islands"
    },
    {
        "hill_id": 190,
        "hill_list": "Munros",
        "hill_name": "Sgurr na Banachdich",
        "meaning": "Perhaps from banachdag, a milkmaid",
        "height": 965,
        "height_drop": null,
        "latitude": 57.22054,
        "longitude": -6.24237,
        "os_ref": null,
        "region_name": "17 - The Islands"
    },
    {
        "hill_id": 191,
        "hill_list": "Munros",
        "hill_name": "Sgurr nan Gillean",
        "meaning": "Peak of the young men",
        "height": 964,
        "height_drop": null,
        "latitude": 57.24735,
        "longitude": -6.19402,
        "os_ref": null,
        "region_name": "17 - The Islands"
    },
    {
        "hill_id": 192,
        "hill_list": "Munros",
        "hill_name": "Carn a' Chlamain",
        "meaning": "Hill of the kite or buzzard",
        "height": 963,
        "height_drop": null,
        "latitude": 56.8609,
        "longitude": -3.78112,
        "os_ref": null,
        "region_name": "06 - Drumochter to Glen Shee"
    },
    {
        "hill_id": 193,
        "hill_list": "Munros",
        "hill_name": "Sgurr Thuilm",
        "meaning": "Peak of the rounded hillock",
        "height": 963,
        "height_drop": null,
        "latitude": 56.93635,
        "longitude": -5.38926,
        "os_ref": null,
        "region_name": "10 - Loch Linnhe to Glen Shiel"
    },
    {
        "hill_id": 194,
        "hill_list": "Munros",
        "hill_name": "Sgorr Ruadh",
        "meaning": "Red peak",
        "height": 962,
        "height_drop": null,
        "latitude": 57.49859,
        "longitude": -5.40786,
        "os_ref": null,
        "region_name": "13 - Glen Carron to Loch Maree"
    },
    {
        "hill_id": 195,
        "hill_list": "Munros",
        "hill_name": "Ben Klibreck",
        "meaning": "Hill of the speckled cliff",
        "height": 962,
        "height_drop": null,
        "latitude": 58.23502,
        "longitude": -4.41162,
        "os_ref": null,
        "region_name": "16 - Loch Broom to the Pentland Firth"
    },
    {
        "hill_id": 196,
        "hill_list": "Munros",
        "hill_name": "Stuchd an Lochain",
        "meaning": "Peak of the little loch",
        "height": 960,
        "height_drop": null,
        "latitude": 56.57056,
        "longitude": -4.47067,
        "os_ref": null,
        "region_name": "02 - Loch Tay to Rannoch Moor"
    },
    {
        "hill_id": 197,
        "hill_list": "Munros",
        "hill_name": "Beinn nan Aighenan",
        "meaning": "Hill of the hinds",
        "height": 960,
        "height_drop": null,
        "latitude": 56.51996,
        "longitude": -5.01207,
        "os_ref": null,
        "region_name": "03 - Rannoch Moor to Loch Linnhe"
    },
    {
        "hill_id": 198,
        "hill_list": "Munros",
        "hill_name": "Beinn Fhionnlaidh",
        "meaning": "Finlay's hill",
        "height": 959,
        "height_drop": null,
        "latitude": 56.60037,
        "longitude": -5.10485,
        "os_ref": null,
        "region_name": "03 - Rannoch Moor to Loch Linnhe"
    },
    {
        "hill_id": 199,
        "hill_list": "Munros",
        "hill_name": "Meall Glas",
        "meaning": "Greenish-grey hill",
        "height": 959,
        "height_drop": null,
        "latitude": 56.45486,
        "longitude": -4.54755,
        "os_ref": null,
        "region_name": "02 - Loch Tay to Rannoch Moor"
    },
    {
        "hill_id": 200,
        "hill_list": "Munros",
        "hill_name": "Buachaille Etive Beag, Stob Dubh",
        "meaning": "Small herdsman of Etive, black peak",
        "height": 958,
        "height_drop": null,
        "latitude": 56.6378,
        "longitude": -4.9709,
        "os_ref": null,
        "region_name": "03 - Rannoch Moor to Loch Linnhe"
    },
    {
        "hill_id": 201,
        "hill_list": "Munros",
        "hill_name": "Tolmount",
        "meaning": "Doll mounth or hill (leading to Glen Doll)",
        "height": 958,
        "height_drop": null,
        "latitude": 56.90458,
        "longitude": -3.29877,
        "os_ref": null,
        "region_name": "07 - Glen Shee to Glen Esk"
    },
    {
        "hill_id": 202,
        "hill_list": "Munros",
        "hill_name": "Bruach na Frithe",
        "meaning": "Slope of the deer forest",
        "height": 958,
        "height_drop": null,
        "latitude": 57.2468,
        "longitude": -6.21055,
        "os_ref": null,
        "region_name": "17 - The Islands"
    },
    {
        "hill_id": 203,
        "hill_list": "Munros",
        "hill_name": "Carn Ghluasaid",
        "meaning": "Hill of movement",
        "height": 957,
        "height_drop": null,
        "latitude": 57.16574,
        "longitude": -5.0694,
        "os_ref": null,
        "region_name": "11 - Glen Shiel to Loch Mullardoch"
    },
    {
        "hill_id": 204,
        "hill_list": "Munros",
        "hill_name": "Tom Buidhe",
        "meaning": "Yellow hill",
        "height": 957,
        "height_drop": null,
        "latitude": 56.89295,
        "longitude": -3.29344,
        "os_ref": null,
        "region_name": "07 - Glen Shee to Glen Esk"
    },
    {
        "hill_id": 205,
        "hill_list": "Munros",
        "hill_name": "Sgurr nan Coireachean",
        "meaning": "Peak of the corries",
        "height": 956,
        "height_drop": null,
        "latitude": 56.93559,
        "longitude": -5.45003,
        "os_ref": null,
        "region_name": "10 - Loch Linnhe to Glen Shiel"
    },
    {
        "hill_id": 206,
        "hill_list": "Munros",
        "hill_name": "Saileag",
        "meaning": "Little heel",
        "height": 956,
        "height_drop": null,
        "latitude": 57.18101,
        "longitude": -5.28253,
        "os_ref": null,
        "region_name": "11 - Glen Shiel to Loch Mullardoch"
    },
    {
        "hill_id": 207,
        "hill_list": "Munros",
        "hill_name": "Buachaille Etive Mor, Stob na Broige",
        "meaning": "Peak of the shoe",
        "height": 956,
        "height_drop": null,
        "latitude": 56.62926,
        "longitude": -4.95229,
        "os_ref": null,
        "region_name": "03 - Rannoch Moor to Loch Linnhe"
    },
    {
        "hill_id": 208,
        "hill_list": "Munros",
        "hill_name": "Sgor Gaibhre",
        "meaning": "Goat's peak",
        "height": 955,
        "height_drop": null,
        "latitude": 56.77211,
        "longitude": -4.54774,
        "os_ref": null,
        "region_name": "04 - Loch Linnhe to Loch Ericht"
    },
    {
        "hill_id": 209,
        "hill_list": "Munros",
        "hill_name": "Beinn Liath Mhor Fannaich",
        "meaning": "Big grey hill of Fannich",
        "height": 954,
        "height_drop": null,
        "latitude": 57.706,
        "longitude": -4.99077,
        "os_ref": null,
        "region_name": "14 - Loch Maree to Loch Broom"
    },
    {
        "hill_id": 210,
        "hill_list": "Munros",
        "hill_name": "Beinn Mhanach",
        "meaning": "Monk hill",
        "height": 953,
        "height_drop": null,
        "latitude": 56.53367,
        "longitude": -4.64718,
        "os_ref": null,
        "region_name": "02 - Loch Tay to Rannoch Moor"
    },
    {
        "hill_id": 211,
        "hill_list": "Munros",
        "hill_name": "Sgurr nan Coireachan",
        "meaning": "Peak of the corries",
        "height": 953,
        "height_drop": null,
        "latitude": 57.00693,
        "longitude": -5.40556,
        "os_ref": null,
        "region_name": "10 - Loch Linnhe to Glen Shiel"
    },
    {
        "hill_id": 212,
        "hill_list": "Munros",
        "hill_name": "Am Faochagach",
        "meaning": "The place of the shells",
        "height": 953,
        "height_drop": null,
        "latitude": 57.77115,
        "longitude": -4.85487,
        "os_ref": null,
        "region_name": "15 - Loch Broom to the Cromarty Firth"
    },
    {
        "hill_id": 213,
        "hill_list": "Munros",
        "hill_name": "Meall Dearg (Aonach Eagach)",
        "meaning": "Red hill",
        "height": 953,
        "height_drop": null,
        "latitude": 56.68016,
        "longitude": -5.00363,
        "os_ref": null,
        "region_name": "03 - Rannoch Moor to Loch Linnhe"
    },
    {
        "hill_id": 214,
        "hill_list": "Munros",
        "hill_name": "Meall Chuaich",
        "meaning": "Hill of the quaich",
        "height": 951,
        "height_drop": null,
        "latitude": 56.96354,
        "longitude": -4.11335,
        "os_ref": null,
        "region_name": "05 - Loch Ericht to Drumochter"
    },
    {
        "hill_id": 215,
        "hill_list": "Munros",
        "hill_name": "Meall Gorm",
        "meaning": "Blue hill",
        "height": 949,
        "height_drop": null,
        "latitude": 57.68097,
        "longitude": -4.98535,
        "os_ref": null,
        "region_name": "14 - Loch Maree to Loch Broom"
    },
    {
        "hill_id": 216,
        "hill_list": "Munros",
        "hill_name": "Beinn Bhuidhe",
        "meaning": "Yellow hill",
        "height": 948,
        "height_drop": null,
        "latitude": 56.32649,
        "longitude": -4.90783,
        "os_ref": null,
        "region_name": "01 - Loch Fyne to Loch Tay"
    },
    {
        "hill_id": 217,
        "hill_list": "Munros",
        "hill_name": "Sgurr Mhic Choinnich",
        "meaning": "MacKenzie's peak (after John MacKenzie, Cuillin guide)",
        "height": 948,
        "height_drop": null,
        "latitude": 57.20856,
        "longitude": -6.22442,
        "os_ref": null,
        "region_name": "17 - The Islands"
    },
    {
        "hill_id": 218,
        "hill_list": "Munros",
        "hill_name": "Creag a' Mhaim",
        "meaning": "Rock of the large rounded hill",
        "height": 947,
        "height_drop": null,
        "latitude": 57.1203,
        "longitude": -5.16148,
        "os_ref": null,
        "region_name": "10 - Loch Linnhe to Glen Shiel"
    },
    {
        "hill_id": 219,
        "hill_list": "Munros",
        "hill_name": "Driesh",
        "meaning": "Gaelic dris, a thorn bush or bramble",
        "height": 947,
        "height_drop": null,
        "latitude": 56.8472,
        "longitude": -3.19677,
        "os_ref": null,
        "region_name": "07 - Glen Shee to Glen Esk"
    },
    {
        "hill_id": 220,
        "hill_list": "Munros",
        "hill_name": "Beinn Tulaichean",
        "meaning": "Hill of the hillocks",
        "height": 946,
        "height_drop": null,
        "latitude": 56.34217,
        "longitude": -4.56431,
        "os_ref": null,
        "region_name": "01 - Loch Fyne to Loch Tay"
    },
    {
        "hill_id": 221,
        "hill_list": "Munros",
        "hill_name": "Sgurr na Sgine",
        "meaning": "Peak of the knife",
        "height": 946,
        "height_drop": null,
        "latitude": 57.1465,
        "longitude": -5.39689,
        "os_ref": null,
        "region_name": "10 - Loch Linnhe to Glen Shiel"
    },
    {
        "hill_id": 222,
        "hill_list": "Munros",
        "hill_name": "Carn Bhac",
        "meaning": "Hill of peat-banks",
        "height": 946,
        "height_drop": null,
        "latitude": 56.93033,
        "longitude": -3.56094,
        "os_ref": null,
        "region_name": "06 - Drumochter to Glen Shee"
    },
    {
        "hill_id": 223,
        "hill_list": "Munros",
        "hill_name": "Meall Buidhe",
        "meaning": "Yellow hill",
        "height": 946,
        "height_drop": null,
        "latitude": 57.03089,
        "longitude": -5.54625,
        "os_ref": null,
        "region_name": "10 - Loch Linnhe to Glen Shiel"
    },
    {
        "hill_id": 224,
        "hill_list": "Munros",
        "hill_name": "Bidean a' Choire Sheasgaich",
        "meaning": "Peak of the corrie of the barren or milkless cattle",
        "height": 945,
        "height_drop": null,
        "latitude": 57.41915,
        "longitude": -5.25053,
        "os_ref": null,
        "region_name": "12 - Loch Mullardoch to Glen Carron"
    },
    {
        "hill_id": 225,
        "hill_list": "Munros",
        "hill_name": "Carn Dearg",
        "meaning": "Red hill",
        "height": 945,
        "height_drop": null,
        "latitude": 57.09138,
        "longitude": -4.25432,
        "os_ref": null,
        "region_name": "09 - Speyside to Great Glen"
    },
    {
        "hill_id": 226,
        "hill_list": "Munros",
        "hill_name": "Stob a' Choire Odhair",
        "meaning": "Peak of the dun-coloured corrie",
        "height": 945,
        "height_drop": null,
        "latitude": 56.57258,
        "longitude": -4.83877,
        "os_ref": null,
        "region_name": "03 - Rannoch Moor to Loch Linnhe"
    },
    {
        "hill_id": 227,
        "hill_list": "Munros",
        "hill_name": "Sgurr Dubh Mor",
        "meaning": "Big black peak",
        "height": 944,
        "height_drop": null,
        "latitude": 57.20447,
        "longitude": -6.21235,
        "os_ref": null,
        "region_name": "17 - The Islands"
    },
    {
        "hill_id": 228,
        "hill_list": "Munros",
        "hill_name": "An Socach",
        "meaning": "The projecting place (beak or snout)",
        "height": 944,
        "height_drop": null,
        "latitude": 56.90126,
        "longitude": -3.51375,
        "os_ref": null,
        "region_name": "06 - Drumochter to Glen Shee"
    },
    {
        "hill_id": 229,
        "hill_list": "Munros",
        "hill_name": "Ben Vorlich",
        "meaning": "Hill of the bay",
        "height": 943,
        "height_drop": null,
        "latitude": 56.27336,
        "longitude": -4.75516,
        "os_ref": null,
        "region_name": "01 - Loch Fyne to Loch Tay"
    },
    {
        "hill_id": 230,
        "hill_list": "Munros",
        "hill_name": "Binnean Beag",
        "meaning": "Small peak",
        "height": 943,
        "height_drop": null,
        "latitude": 56.76682,
        "longitude": -4.91235,
        "os_ref": null,
        "region_name": "04 - Loch Linnhe to Loch Ericht"
    },
    {
        "hill_id": 231,
        "hill_list": "Munros",
        "hill_name": "Beinn a' Chroin",
        "meaning": "Hill of harm or danger",
        "height": 942,
        "height_drop": null,
        "latitude": 56.33207,
        "longitude": -4.60967,
        "os_ref": null,
        "region_name": "01 - Loch Fyne to Loch Tay"
    },
    {
        "hill_id": 232,
        "hill_list": "Munros",
        "hill_name": "Carn Dearg",
        "meaning": "Red hill",
        "height": 941,
        "height_drop": null,
        "latitude": 56.75954,
        "longitude": -4.59107,
        "os_ref": null,
        "region_name": "04 - Loch Linnhe to Loch Ericht"
    },
    {
        "hill_id": 233,
        "hill_list": "Munros",
        "hill_name": "Carn na Caim",
        "meaning": "Cairn of the curve",
        "height": 941,
        "height_drop": null,
        "latitude": 56.91128,
        "longitude": -4.17446,
        "os_ref": null,
        "region_name": "05 - Loch Ericht to Drumochter"
    },
    {
        "hill_id": 234,
        "hill_list": "Munros",
        "hill_name": "Mount Keen",
        "meaning": "Gaelic monadh, meaning hill",
        "height": 939,
        "height_drop": null,
        "latitude": 56.96952,
        "longitude": -2.9737,
        "os_ref": null,
        "region_name": "07 - Glen Shee to Glen Esk"
    },
    {
        "hill_id": 235,
        "hill_list": "Munros",
        "hill_name": "Luinne Bheinne",
        "meaning": "Hill of anger, or hill of mirth or melody",
        "height": 939,
        "height_drop": null,
        "latitude": 57.04795,
        "longitude": -5.51489,
        "os_ref": null,
        "region_name": "10 - Loch Linnhe to Glen Shiel"
    },
    {
        "hill_id": 236,
        "hill_list": "Munros",
        "hill_name": "Mullach na Coirean",
        "meaning": "Summit of the corries",
        "height": 939,
        "height_drop": null,
        "latitude": 56.74948,
        "longitude": -5.07297,
        "os_ref": null,
        "region_name": "04 - Loch Linnhe to Loch Ericht"
    },
    {
        "hill_id": 237,
        "hill_list": "Munros",
        "hill_name": "Sron a' Choire Ghairbh",
        "meaning": "Nose of the rough corrie",
        "height": 937,
        "height_drop": null,
        "latitude": 57.0073,
        "longitude": -4.92949,
        "os_ref": null,
        "region_name": "10 - Loch Linnhe to Glen Shiel"
    },
    {
        "hill_id": 238,
        "hill_list": "Munros",
        "hill_name": "Beinn Sgulaird",
        "meaning": "Unknown",
        "height": 937,
        "height_drop": null,
        "latitude": 56.56546,
        "longitude": -5.17036,
        "os_ref": null,
        "region_name": "03 - Rannoch Moor to Loch Linnhe"
    },
    {
        "hill_id": 239,
        "hill_list": "Munros",
        "hill_name": "Beinn Tarsuinn",
        "meaning": "Transverse hill",
        "height": 937,
        "height_drop": null,
        "latitude": 57.7021,
        "longitude": -5.29265,
        "os_ref": null,
        "region_name": "14 - Loch Maree to Loch Broom"
    },
    {
        "hill_id": 240,
        "hill_list": "Munros",
        "hill_name": "A' Bhuidheanach Bheag",
        "meaning": "The little yellow place",
        "height": 936,
        "height_drop": null,
        "latitude": 56.87039,
        "longitude": -4.19998,
        "os_ref": null,
        "region_name": "05 - Loch Ericht to Drumochter"
    },
    {
        "hill_id": 241,
        "hill_list": "Munros",
        "hill_name": "Beinn na Lap",
        "meaning": "Mottled hill",
        "height": 935,
        "height_drop": null,
        "latitude": 56.78864,
        "longitude": -4.66021,
        "os_ref": null,
        "region_name": "04 - Loch Linnhe to Loch Ericht"
    },
    {
        "hill_id": 242,
        "hill_list": "Munros",
        "hill_name": "Am Basteir",
        "meaning": "Obscure, but probably NOT the executioner",
        "height": 934,
        "height_drop": null,
        "latitude": 57.24791,
        "longitude": -6.20404,
        "os_ref": null,
        "region_name": "17 - The Islands"
    },
    {
        "hill_id": 243,
        "hill_list": "Munros",
        "hill_name": "Meall a' Chrasgaidh",
        "meaning": "Hill of the crossing",
        "height": 934,
        "height_drop": null,
        "latitude": 57.71268,
        "longitude": -5.0501,
        "os_ref": null,
        "region_name": "14 - Loch Maree to Loch Broom"
    },
    {
        "hill_id": 244,
        "hill_list": "Munros",
        "hill_name": "Maol Chean-dearg",
        "meaning": "Bald red head",
        "height": 933,
        "height_drop": null,
        "latitude": 57.49162,
        "longitude": -5.46564,
        "os_ref": null,
        "region_name": "13 - Glen Carron to Loch Maree"
    },
    {
        "hill_id": 245,
        "hill_list": "Munros",
        "hill_name": "The Cairnwell",
        "meaning": "From Gaelic Carn Bhalg, hill of bags",
        "height": 933,
        "height_drop": null,
        "latitude": 56.87897,
        "longitude": -3.42259,
        "os_ref": null,
        "region_name": "06 - Drumochter to Glen Shee"
    },
    {
        "hill_id": 246,
        "hill_list": "Munros",
        "hill_name": "Fionn Bheinn",
        "meaning": "Pale-coloured hill",
        "height": 933,
        "height_drop": null,
        "latitude": 57.61071,
        "longitude": -5.1035,
        "os_ref": null,
        "region_name": "14 - Loch Maree to Loch Broom"
    },
    {
        "hill_id": 247,
        "hill_list": "Munros",
        "hill_name": "Beinn Chabhair",
        "meaning": "Possibly hill of the hawk",
        "height": 933,
        "height_drop": null,
        "latitude": 56.32525,
        "longitude": -4.64243,
        "os_ref": null,
        "region_name": "01 - Loch Fyne to Loch Tay"
    },
    {
        "hill_id": 248,
        "hill_list": "Munros",
        "hill_name": "Meall Buidhe",
        "meaning": "Yellow hill",
        "height": 932,
        "height_drop": null,
        "latitude": 56.61681,
        "longitude": -4.44925,
        "os_ref": null,
        "region_name": "02 - Loch Tay to Rannoch Moor"
    },
    {
        "hill_id": 249,
        "hill_list": "Munros",
        "hill_name": "Beinn Bhreac",
        "meaning": "Speckled hill",
        "height": 931,
        "height_drop": null,
        "latitude": 57.05529,
        "longitude": -3.55464,
        "os_ref": null,
        "region_name": "08 - Deeside to Speyside - The Cairngorms"
    },
    {
        "hill_id": 250,
        "hill_list": "Munros",
        "hill_name": "Ben Chonzie (Ben-y-Hone)",
        "meaning": "Probably mossy hill",
        "height": 931,
        "height_drop": null,
        "latitude": 56.45334,
        "longitude": -3.99242,
        "os_ref": null,
        "region_name": "01 - Loch Fyne to Loch Tay"
    },
    {
        "hill_id": 251,
        "hill_list": "Munros",
        "hill_name": "A' Chailleach",
        "meaning": "The old woman",
        "height": 930,
        "height_drop": null,
        "latitude": 57.10888,
        "longitude": -4.17942,
        "os_ref": null,
        "region_name": "09 - Speyside to Great Glen"
    },
    {
        "hill_id": 252,
        "hill_list": "Munros",
        "hill_name": "Bla Bheinn (Blaven)",
        "meaning": "Blue hill, or possibly warm hill",
        "height": 928,
        "height_drop": null,
        "latitude": 57.21916,
        "longitude": -6.09467,
        "os_ref": null,
        "region_name": "17 - The Islands"
    },
    {
        "hill_id": 253,
        "hill_list": "Munros",
        "hill_name": "Meall nan Eun",
        "meaning": "Hill of the birds",
        "height": 928,
        "height_drop": null,
        "latitude": 56.56115,
        "longitude": -4.94372,
        "os_ref": null,
        "region_name": "03 - Rannoch Moor to Loch Linnhe"
    },
    {
        "hill_id": 254,
        "hill_list": "Munros",
        "hill_name": "Mayar",
        "meaning": "Meaning obscure",
        "height": 928,
        "height_drop": null,
        "latitude": 56.8485,
        "longitude": -3.24764,
        "os_ref": null,
        "region_name": "07 - Glen Shee to Glen Esk"
    },
    {
        "hill_id": 255,
        "hill_list": "Munros",
        "hill_name": "Moruisg",
        "meaning": "Big water",
        "height": 928,
        "height_drop": null,
        "latitude": 57.49938,
        "longitude": -5.17084,
        "os_ref": null,
        "region_name": "12 - Loch Mullardoch to Glen Carron"
    },
    {
        "hill_id": 256,
        "hill_list": "Munros",
        "hill_name": "Ben Hope",
        "meaning": "Hill of the bay",
        "height": 927,
        "height_drop": null,
        "latitude": 58.41265,
        "longitude": -4.60867,
        "os_ref": null,
        "region_name": "16 - Loch Broom to the Pentland Firth"
    },
    {
        "hill_id": 257,
        "hill_list": "Munros",
        "hill_name": "Eididh nan Clach Geala",
        "meaning": "Web of the white stones",
        "height": 927,
        "height_drop": null,
        "latitude": 57.81334,
        "longitude": -4.93567,
        "os_ref": null,
        "region_name": "15 - Loch Broom to the Cromarty Firth"
    },
    {
        "hill_id": 258,
        "hill_list": "Munros",
        "hill_name": "Beinn Liath Mhor",
        "meaning": "Big grey hill",
        "height": 926,
        "height_drop": null,
        "latitude": 57.51137,
        "longitude": -5.4007,
        "os_ref": null,
        "region_name": "13 - Glen Carron to Loch Maree"
    },
    {
        "hill_id": 259,
        "hill_list": "Munros",
        "hill_name": "Seana Bhraigh",
        "meaning": "Old upper part",
        "height": 926,
        "height_drop": null,
        "latitude": 57.84656,
        "longitude": -4.89792,
        "os_ref": null,
        "region_name": "15 - Loch Broom to the Cromarty Firth"
    },
    {
        "hill_id": 260,
        "hill_list": "Munros",
        "hill_name": "Beinn Narnain",
        "meaning": "Unknown",
        "height": 926,
        "height_drop": null,
        "latitude": 56.22044,
        "longitude": -4.79008,
        "os_ref": null,
        "region_name": "01 - Loch Fyne to Loch Tay"
    },
    {
        "hill_id": 261,
        "hill_list": "Munros",
        "hill_name": "Meall a Choire Leith",
        "meaning": "Hill of the grey corrie",
        "height": 926,
        "height_drop": null,
        "latitude": 56.56647,
        "longitude": -4.26042,
        "os_ref": null,
        "region_name": "02 - Loch Tay to Rannoch Moor"
    },
    {
        "hill_id": 262,
        "hill_list": "Munros",
        "hill_name": "Geal Charn",
        "meaning": "White hill",
        "height": 926,
        "height_drop": null,
        "latitude": 57.05681,
        "longitude": -4.37426,
        "os_ref": null,
        "region_name": "09 - Speyside to Great Glen"
    },
    {
        "hill_id": 263,
        "hill_list": "Munros",
        "hill_name": "Buachaille Etive Beag, Stob Coire Raineach",
        "meaning": "Ferny corrie peak",
        "height": 925,
        "height_drop": null,
        "latitude": 56.64993,
        "longitude": -4.95228,
        "os_ref": null,
        "region_name": "03 - Rannoch Moor to Loch Linnhe"
    },
    {
        "hill_id": 264,
        "hill_list": "Munros",
        "hill_name": "Creag Pitridh",
        "meaning": "Meaning uncertain, perhaps from the surname Petrie",
        "height": 924,
        "height_drop": null,
        "latitude": 56.89918,
        "longitude": -4.48577,
        "os_ref": null,
        "region_name": "04 - Loch Linnhe to Loch Ericht"
    },
    {
        "hill_id": 265,
        "hill_list": "Munros",
        "hill_name": "Sgurr nan Eag",
        "meaning": "Peak of the notches",
        "height": 924,
        "height_drop": null,
        "latitude": 57.19551,
        "longitude": -6.21133,
        "os_ref": null,
        "region_name": "17 - The Islands"
    },
    {
        "hill_id": 266,
        "hill_list": "Munros",
        "hill_name": "Sgurr nan Each",
        "meaning": "Peak of the horses",
        "height": 923,
        "height_drop": null,
        "latitude": 57.68039,
        "longitude": -5.04738,
        "os_ref": null,
        "region_name": "14 - Loch Maree to Loch Broom"
    },
    {
        "hill_id": 267,
        "hill_list": "Munros",
        "hill_name": "An Coileachan",
        "meaning": "The little cock",
        "height": 923,
        "height_drop": null,
        "latitude": 57.6674,
        "longitude": -4.95069,
        "os_ref": null,
        "region_name": "14 - Loch Maree to Loch Broom"
    },
    {
        "hill_id": 268,
        "hill_list": "Munros",
        "hill_name": "Tom na Gruagaich (Beinn Alligin)",
        "meaning": "Hill of the maiden",
        "height": 922,
        "height_drop": null,
        "latitude": 57.58004,
        "longitude": -5.58283,
        "os_ref": null,
        "region_name": "13 - Glen Carron to Loch Maree"
    },
    {
        "hill_id": 269,
        "hill_list": "Munros",
        "hill_name": "An Socach",
        "meaning": "The snout",
        "height": 921,
        "height_drop": null,
        "latitude": 57.25757,
        "longitude": -5.17158,
        "os_ref": null,
        "region_name": "11 - Glen Shiel to Loch Mullardoch"
    },
    {
        "hill_id": 270,
        "hill_list": "Munros",
        "hill_name": "Sgiath Chuil",
        "meaning": "Back wing",
        "height": 921,
        "height_drop": null,
        "latitude": 56.4523,
        "longitude": -4.49707,
        "os_ref": null,
        "region_name": "02 - Loch Tay to Rannoch Moor"
    },
    {
        "hill_id": 271,
        "hill_list": "Munros",
        "hill_name": "Carn Sgulain",
        "meaning": "Hill of the basket, or of the old man",
        "height": 920,
        "height_drop": null,
        "latitude": 57.1242,
        "longitude": -4.17701,
        "os_ref": null,
        "region_name": "09 - Speyside to Great Glen"
    },
    {
        "hill_id": 272,
        "hill_list": "Munros",
        "hill_name": "Gairich",
        "meaning": "Roaring",
        "height": 919,
        "height_drop": null,
        "latitude": 57.04414,
        "longitude": -5.25725,
        "os_ref": null,
        "region_name": "10 - Loch Linnhe to Glen Shiel"
    },
    {
        "hill_id": 273,
        "hill_list": "Munros",
        "hill_name": "Ruadh Stac Mor",
        "meaning": "Big red peak",
        "height": 919,
        "height_drop": null,
        "latitude": 57.72629,
        "longitude": -5.33013,
        "os_ref": null,
        "region_name": "14 - Loch Maree to Loch Broom"
    },
    {
        "hill_id": 274,
        "hill_list": "Munros",
        "hill_name": "A' Ghlas-bheinn",
        "meaning": "The greenish-grey hill",
        "height": 918,
        "height_drop": null,
        "latitude": 57.25416,
        "longitude": -5.30397,
        "os_ref": null,
        "region_name": "11 - Glen Shiel to Loch Mullardoch"
    },
    {
        "hill_id": 275,
        "hill_list": "Munros",
        "hill_name": "Sgurr a' Mhadaidh",
        "meaning": "Peak of the fox",
        "height": 918,
        "height_drop": null,
        "latitude": 57.23073,
        "longitude": -6.23359,
        "os_ref": null,
        "region_name": "17 - The Islands"
    },
    {
        "hill_id": 276,
        "hill_list": "Munros",
        "hill_name": "Meall na Teanga",
        "meaning": "Hill of the tongue",
        "height": 918,
        "height_drop": null,
        "latitude": 56.98838,
        "longitude": -4.93129,
        "os_ref": null,
        "region_name": "10 - Loch Linnhe to Glen Shiel"
    },
    {
        "hill_id": 277,
        "hill_list": "Munros",
        "hill_name": "Creag nan Damh",
        "meaning": "Rock of the stags",
        "height": 918,
        "height_drop": null,
        "latitude": 57.14635,
        "longitude": -5.33569,
        "os_ref": null,
        "region_name": "10 - Loch Linnhe to Glen Shiel"
    },
    {
        "hill_id": 278,
        "hill_list": "Munros",
        "hill_name": "Geal-charn",
        "meaning": "White hill",
        "height": 917,
        "height_drop": null,
        "latitude": 56.87389,
        "longitude": -4.30521,
        "os_ref": null,
        "region_name": "05 - Loch Ericht to Drumochter"
    },
    {
        "hill_id": 279,
        "hill_list": "Munros",
        "hill_name": "Beinn a' Chleibh",
        "meaning": "Hill of the creel or chest",
        "height": 916,
        "height_drop": null,
        "latitude": 56.39017,
        "longitude": -4.83652,
        "os_ref": null,
        "region_name": "01 - Loch Fyne to Loch Tay"
    },
    {
        "hill_id": 280,
        "hill_list": "Munros",
        "hill_name": "Ben Vane",
        "meaning": "Middle hill",
        "height": 916,
        "height_drop": null,
        "latitude": 56.24938,
        "longitude": -4.7825,
        "os_ref": null,
        "region_name": "01 - Loch Fyne to Loch Tay"
    },
    {
        "hill_id": 281,
        "hill_list": "Munros",
        "hill_name": "Carn Aosda",
        "meaning": "Hill of age",
        "height": 915,
        "height_drop": null,
        "latitude": 56.89604,
        "longitude": -3.42324,
        "os_ref": null,
        "region_name": "06 - Drumochter to Glen Shee"
    },
    {
        "hill_id": 282,
        "hill_list": "Munros",
        "hill_name": "Beinn Teallach",
        "meaning": "Forge hill",
        "height": 915,
        "height_drop": null,
        "latitude": 56.93528,
        "longitude": -4.69531,
        "os_ref": null,
        "region_name": "09 - Speyside to Great Glen"
    }
]